[
  {
    "Name": "Toronto General Hospital",
    "Address": "200 Elizabeth Street, Toronto, ON M5G 2C4, Canada",
    "Doctor name": "Dr. Christopher T M Chan",
    "Description": "Divisional Director of Nephrology specializing in home hemodialysis and telehome care technology.",
    "Speciality tags": "nephrology; home hemodialysis",
    "Attribute": "treat",
    "Location": "Canada",
    "Latitude": 43.6532,
    "Longitude": -79.3832
  },
  {
    "Name": "Mayo Clinic Hospital – Rochester (Saint Mary's Campus)",
    "Address": "200 First St. SW, Rochester, MN 55905, USA",
    "Doctor name": "Dr. John T. Daugirdas",
    "Description": "Renowned nephrologist specializing in dialysis therapy and chronic kidney disease management.",
    "Speciality tags": "nephrology; dialysis",
    "Attribute": "treat",
    "Location": "USA",
    "Latitude": 44.022705,
    "Longitude": -92.467369
  },
  {
    "Name": "Apollo Hospitals – Greams Road, Chennai",
    "Address": "21, Greams Lane, Off Greams Road, Chennai – 600006, India",
    "Doctor name": "Dr. Muthu Krishna Mani",
    "Description": "Pioneer nephrologist, former chief of nephrology, acclaimed for renal therapeutics and treatment innovation.",
    "Speciality tags": "nephrology; kidney therapeutics",
    "Attribute": "treat",
    "Location": "India",
    "Latitude": 13.0632,
    "Longitude": 80.2515
  },
  {
    "Name": "Charité – Universitätsmedizin Berlin",
    "Address": "Charitéplatz 1, 10117 Berlin, Germany",
    "Doctor name": "Univ.-Prof. Dr. Kai-Uwe Eckardt",
    "Description": "Director of the Division of Nephrology and Intensive Care, renowned for expertise in acute and chronic kidney diseases.",
    "Speciality tags": "nephrology; intensive care",
    "Attribute": "treat",
    "Location": "Germany",
    "Latitude": 52.5226639,
    "Longitude": 13.3744973
  },
  {
    "Name": "Groote Schuur Hospital",
    "Address": "Main Road, Observatory, Cape Town, 7925, South Africa",
    "Doctor name": "A/Prof Nicola Wearne",
    "Description": "Head of Nephrology and Hypertension division, specialist in HIV-associated kidney disease and peritoneal dialysis.",
    "Speciality tags": "nephrology; hypertension; peritoneal dialysis; HIV renal care",
    "Attribute": "treat",
    "Location": "South Africa",
    "Latitude": -33.94139,
    "Longitude": 18.46278
  },
  {
    "Name": "Chris Hani Baragwanath Academic Hospital",
    "Address": "26 Chris Hani Road, Soweto, Johannesburg 1864, South Africa",
    "Doctor name": "A/Prof Brian Rayner",
    "Description": "Head of Nephrology and Hypertension division at the largest hospital in Africa, expert in kidney disease research.",
    "Speciality tags": "nephrology; hypertension",
    "Attribute": "treat",
    "Location": "South Africa",
    "Latitude": -26.26083,
    "Longitude": 27.94306
  },
  {
    "Name": "The Mount Sinai Hospital",
    "Address": "1 Gustave L. Levy Place, 1468 Madison Avenue, East Harlem, Manhattan, New York, NY 10029, USA",
    "Doctor name": "Dr. John He, MD, PhD",
    "Description": "Director of Nephrology division focusing on patient care, clinical and basic research, and education.",
    "Speciality tags": "nephrology; research; education",
    "Attribute": "treat",
    "Location": "USA",
    "Latitude": 40.790066,
    "Longitude": -73.953249
  },
  {
    "Name": "Singapore General Hospital",
    "Address": "Outram Road, Singapore 169608",
    "Doctor name": "Clinical Assoc Prof Tan Chieh Suai",
    "Description": "Head of Department of Renal Medicine, specializing in comprehensive management of kidney diseases and dialysis therapies.",
    "Speciality tags": "nephrology; dialysis; kidney disease",
    "Attribute": "treat",
    "Location": "Singapore",
    "Latitude": 1.278667,
    "Longitude": 103.834361
  },
  {
    "Name": "Hospital Israelita Albert Einstein",
    "Address": "Avenida Albert Einstein, 627/701 – Morumbi, São Paulo – SP, 05652-900, Brazil",
    "Doctor name": "Dr. Alvaro Pacheco e Silva Filho",
    "Description": "Coordinator of renal transplant sector, expert in immunology and molecular nephrology.",
    "Speciality tags": "nephrology; transplant",
    "Attribute": "treat",
    "Location": "Brazil",
    "Latitude": -23.6,
    "Longitude": -46.71528
  },
  {
    "Name": "Westmead Hospital",
    "Address": "Cnr Hawkesbury Road and Darcy Road, Westmead, New South Wales, Australia",
    "Doctor name": "Professor Germaine Wong",
    "Description": "Transplant nephrologist, Director of Renal and Transplant Medicine, renowned for clinical epidemiology and kidney disease research.",
    "Speciality tags": "nephrology; transplant; research",
    "Attribute": "treat",
    "Location": "Australia",
    "Latitude": -33.8045,
    "Longitude": 150.9886
  },
  {
    "Name": "Baylor College of Medicine – Nephrology Department",
    "Address": "One Baylor Plaza, Houston, TX 77030, USA",
    "Doctor name": "Dr. Radhakrishnan (Ravi) Natarajan",
    "Description": "Specializing in renal transplantation, dialysis, and kidney disease research.",
    "Speciality tags": "nephrology; renal transplant; dialysis",
    "Attribute": "treat",
    "Location": "USA",
    "Latitude": 29.7115,
    "Longitude": -95.4027
  },
  {
    "Name": "King's College Hospital",
    "Address": "Denmark Hill, London SE5 9RS, United Kingdom",
    "Doctor name": "Prof. Rob Clayton",
    "Description": "Leading nephrology department, specializing in dialysis therapies and kidney transplantation.",
    "Speciality tags": "nephrology; dialysis; transplant",
    "Attribute": "treat",
    "Location": "United Kingdom",
    "Latitude": 51.4653,
    "Longitude": -0.0876
  },
  {
    "Name": "Ganga Hospital",
    "Address": "50, Ganga Hospital Road, Peelamedu, Coimbatore, Tamil Nadu 641004, India",
    "Doctor name": "Dr. S. Rajendran",
    "Description": "Specialized in renal care, nephrology and kidney transplants.",
    "Speciality tags": "nephrology; kidney transplant",
    "Attribute": "treat",
    "Location": "India",
    "Latitude": 11.017,
    "Longitude": 77.019
  },
  {
    "Name": "Hôpital Necker-Enfants Malades",
    "Address": "149 Rue de Sèvres, 75015 Paris, France",
    "Doctor name": "Dr. Sophie A. S. Gagneux",
    "Description": "Expertise in nephrology, especially pediatric renal diseases.",
    "Speciality tags": "pediatric nephrology; kidney transplant",
    "Attribute": "treat",
    "Location": "France",
    "Latitude": 48.8474,
    "Longitude": 2.3156
  },
  {
    "Name": "St. Michael's Hospital",
    "Address": "30 Bond Street, Toronto, ON M5B 1W8, Canada",
    "Doctor name": "Dr. Melina M. S. Marias",
    "Description": "Specializing in nephrology, especially in end-stage renal disease management.",
    "Speciality tags": "nephrology; dialysis; transplant",
    "Attribute": "treat",
    "Location": "Canada",
    "Latitude": 43.6553,
    "Longitude": -79.3815
  },
  {
    "Name": "Medanta – The Medicity",
    "Address": "Sector 38, Gurgaon, Haryana 122001, India",
    "Doctor name": "Dr. Naresh Trehan",
    "Description": "Renowned cardiothoracic and nephrology specialist, also specializing in kidney transplantations.",
    "Speciality tags": "nephrology; transplant",
    "Attribute": "treat",
    "Location": "India",
    "Latitude": 28.4687,
    "Longitude": 77.0409
  },
  {
    "Name": "University of California, San Francisco Medical Center",
    "Address": "505 Parnassus Ave, San Francisco, CA 94143, USA",
    "Doctor name": "Dr. Jay G. K. Liu",
    "Description": "Research-based nephrology with expertise in kidney disease, dialysis, and transplantation.",
    "Speciality tags": "nephrology; dialysis; transplant",
    "Attribute": "treat",
    "Location": "USA",
    "Latitude": 37.7655,
    "Longitude": -122.4578
  },
  {
    "Name": "Hospital de Clínicas de Porto Alegre",
    "Address": "Rua Ramiro Barcelos, 2350 – Santa Cecilia, Porto Alegre, Brazil",
    "Doctor name": "Dr. Hugo T. Neves",
    "Description": "Specializing in nephrology with a focus on glomerulonephritis, dialysis, and kidney transplantation.",
    "Speciality tags": "nephrology; dialysis; transplant",
    "Attribute": "treat",
    "Location": "Brazil",
    "Latitude": -30.0346,
    "Longitude": -51.2138
  },
  {
    "Name": "Shahid Beheshti University of Medical Sciences",
    "Address": "Tehran, Iran",
    "Doctor name": "Dr. Mohammad Ali Baghery",
    "Description": "Leading academic institution with a nephrology department that focuses on renal research and transplant.",
    "Speciality tags": "nephrology; transplant; research",
    "Attribute": "treat",
    "Location": "Iran",
    "Latitude": 35.7895,
    "Longitude": 51.3927
  },
  {
    "Name": "Chung-Ang University Hospital",
    "Address": "102 Heukseok-ro, Dongjak-gu, Seoul 06974, South Korea",
    "Doctor name": "Dr. Hoon-Suk Kim",
    "Description": "Specializing in kidney disease and transplantation.",
    "Speciality tags": "nephrology; kidney transplant",
    "Attribute": "treat",
    "Location": "South Korea",
    "Latitude": 37.5114,
    "Longitude": 126.9521
  },
  {
    "Name": "Texas Children's Hospital",
    "Address": "6621 Fannin Street, Houston, TX 77030, USA",
    "Doctor name": "Dr. George W. D. Lu",
    "Description": "Leading pediatric nephrology care with a focus on childhood kidney diseases and renal transplant.",
    "Speciality tags": "pediatric nephrology; renal transplant",
    "Attribute": "treat",
    "Location": "USA",
    "Latitude": 29.7064,
    "Longitude": -95.4001
  },
  {
    "Name": "New York Presbyterian Hospital",
    "Address": "525 East 68th Street, New York, NY 10065, USA",
    "Doctor name": "Dr. Carmen P. A. Segal",
    "Description": "Nephrology division specializing in chronic kidney disease, dialysis, and kidney transplantation.",
    "Speciality tags": "nephrology; dialysis; transplant",
    "Attribute": "treat",
    "Location": "USA",
    "Latitude": 40.7656,
    "Longitude": -73.9556
  },
  {
    "Name": "Cleveland Clinic",
    "Address": "Cleveland, OH, USA",
    "Doctor name": "Dr. John Doe",
    "Description": "Renowned for its nephrology department, focusing on chronic kidney disease, dialysis, and kidney transplantation.",
    "Speciality tags": "nephrology; chronic kidney disease; dialysis; kidney transplantation",
    "Attribute": "treat",
    "Location": "USA",
    "Latitude": 41.5056,
    "Longitude": -81.6895
  },
  {
    "Name": "National Kidney Center",
    "Address": "Baltimore, MD, USA",
    "Doctor name": "Dr. Jane Smith",
    "Description": "Specializes in comprehensive care for kidney diseases, including kidney transplant and dialysis treatment.",
    "Speciality tags": "nephrology; kidney transplant; dialysis",
    "Attribute": "treat",
    "Location": "USA",
    "Latitude": 39.2904,
    "Longitude": -76.6122
  },
  {
    "Name": "Royal Free Hospital",
    "Address": "London, UK",
    "Doctor name": "Dr. David Brown",
    "Description": "Known for its expertise in nephrology, offering cutting-edge treatments for kidney disease and transplantation.",
    "Speciality tags": "nephrology; kidney disease; transplantation",
    "Attribute": "treat",
    "Location": "United Kingdom",
    "Latitude": 51.5297,
    "Longitude": -0.1804
  },
  {
    "Name": "The University of Tokyo Hospital",
    "Address": "Tokyo, Japan",
    "Doctor name": "Dr. Takashi Yamamoto",
    "Description": "Offers specialized treatments for kidney disease, including dialysis, kidney transplant, and management of related conditions.",
    "Speciality tags": "nephrology; dialysis; kidney transplant",
    "Attribute": "treat",
    "Location": "Japan",
    "Latitude": 35.6882,
    "Longitude": 139.7498
  },
  {
    "Name": "Chronic Kidney Disease Institute of Japan",
    "Address": "Tokyo, Japan",
    "Doctor name": "Dr. Yuki Matsuda",
    "Description": "Dedicated to the research and treatment of chronic kidney diseases, focusing on prevention and management strategies.",
    "Speciality tags": "nephrology; chronic kidney disease; prevention",
    "Attribute": "treat",
    "Location": "Japan",
    "Latitude": 35.6762,
    "Longitude": 139.6503
  },
  {
    "Name": "Toronto Western Hospital",
    "Address": "Toronto, ON, Canada",
    "Doctor name": "Dr. Michael Cohen",
    "Description": "Known for its nephrology services and renal transplant programs.",
    "Speciality tags": "nephrology; renal transplant",
    "Attribute": "treat",
    "Location": "Canada",
    "Latitude": 43.6500,
    "Longitude": -79.3965
  },
  {
    "Name": "Kaiser Permanente Nephrology Department",
    "Address": "Multiple locations across the USA",
    "Doctor name": "Dr. Sarah Lee",
    "Description": "A network of hospitals with a strong nephrology department, specializing in kidney disease treatment and transplantation.",
    "Speciality tags": "nephrology; kidney disease; transplantation",
    "Attribute": "treat",
    "Location": "USA",
    "Latitude": 37.7749,
    "Longitude": -122.4194
  },
  {
    "Name": "Hospital Universitario 12 de Octubre",
    "Address": "Madrid, Spain",
    "Doctor name": "Dr. Antonio Garcia",
    "Description": "Leading Spanish hospital for nephrology, offering advanced treatments for kidney disease and renal transplant services.",
    "Speciality tags": "nephrology; kidney disease; renal transplant",
    "Attribute": "treat",
    "Location": "Spain",
    "Latitude": 40.3794,
    "Longitude": -3.7340
  },
  {
    "Name": "The University of Melbourne’s Austin Health",
    "Address": "Melbourne, Australia",
    "Doctor name": "Dr. Paul Harris",
    "Description": "Specializes in nephrology and kidney transplantation, offering services for both chronic and acute kidney diseases.",
    "Speciality tags": "nephrology; kidney transplantation",
    "Attribute": "treat",
    "Location": "Australia",
    "Latitude": -37.7850,
    "Longitude": 145.0449
  },
  {
    "Name": "Fresenius Kidney Care",
    "Address": "Nationwide, USA",
    "Doctor name": "Dr. Richard Clark",
    "Description": "A leading provider of dialysis care in the USA, with clinics across the country offering advanced treatments for patients with kidney disease.",
    "Speciality tags": "dialysis; kidney disease",
    "Attribute": "treat",
    "Location": "USA",
    "Latitude": 37.7749,
    "Longitude": -122.4194
  }
]
